[
 {
  "province": "ON",
  "name": "Oxdrift Tractor Sales Ltd. o/a Skene Lumber",
  "company": "Oxdrift Tractor Sales Ltd. o/a Skene Lumber",
  "town": "Oxdrift",
  "lat": 49.8151,
  "lon": -92.9944,
  "sizeTier": "md",
  "capacityMMbf": null,
  "capacityLabel": "Medium sawmill",
  "status": "operating",
  "coordAccuracy": "exact",
  "source": "Ontario MNRF Forest Resource Mills 2023-24"
 },
 {
  "province": "ON",
  "name": "Manitou Forest Products Limited",
  "company": "Manitou Forest Products Limited",
  "town": "Emo",
  "lat": 48.6428,
  "lon": -93.9343,
  "sizeTier": "md",
  "capacityMMbf": null,
  "capacityLabel": "Medium sawmill",
  "status": "operating",
  "coordAccuracy": "exact",
  "source": "Ontario MNRF Forest Resource Mills 2023-24"
 },
 {
  "province": "ON",
  "name": "531322 Ontario Limited o/a Nickel Lake Lumber",
  "company": "531322 Ontario Limited o/a Nickel Lake Lumber",
  "town": "Fort Frances",
  "lat": 48.7055,
  "lon": -93.1293,
  "sizeTier": "md",
  "capacityMMbf": null,
  "capacityLabel": "Medium sawmill",
  "status": "operating",
  "coordAccuracy": "exact",
  "source": "Ontario MNRF Forest Resource Mills 2023-24"
 },
 {
  "province": "ON",
  "name": "Resolute FP Canada Inc.",
  "company": "Resolute FP Canada Inc.",
  "town": "Ignace",
  "lat": 49.429,
  "lon": -91.745,
  "sizeTier": "lg",
  "capacityMMbf": null,
  "capacityLabel": "Large sawmill",
  "status": "operating",
  "coordAccuracy": "exact",
  "source": "Ontario MNRF Forest Resource Mills 2023-24"
 },
 {
  "province": "ON",
  "name": "EACOM Timber Corporation",
  "company": "EACOM Timber Corporation",
  "town": "Ear Falls",
  "lat": 50.5838,
  "lon": -93.1932,
  "sizeTier": "lg",
  "capacityMMbf": null,
  "capacityLabel": "Large sawmill",
  "status": "operating",
  "coordAccuracy": "exact",
  "source": "Ontario MNRF Forest Resource Mills 2023-24"
 },
 {
  "province": "ON",
  "name": "Resolute FP Canada Inc.",
  "company": "Resolute FP Canada Inc.",
  "town": "Atikokan",
  "lat": 48.769,
  "lon": -91.3351,
  "sizeTier": "lg",
  "capacityMMbf": null,
  "capacityLabel": "Large sawmill",
  "status": "operating",
  "coordAccuracy": "exact",
  "source": "Ontario MNRF Forest Resource Mills 2023-24"
 },
 {
  "province": "ON",
  "name": "Nakina Lumber Inc.",
  "company": "Nakina Lumber Inc.",
  "town": "Nakina",
  "lat": 50.1835,
  "lon": -86.8017,
  "sizeTier": "lg",
  "capacityMMbf": null,
  "capacityLabel": "Large sawmill",
  "status": "operating",
  "coordAccuracy": "exact",
  "source": "Ontario MNRF Forest Resource Mills 2023-24"
 },
 {
  "province": "ON",
  "name": "366956 Ontario Limited o/a Garden Lake Timber",
  "company": "366956 Ontario Limited o/a Garden Lake Timber",
  "town": "Thunder Bay",
  "lat": 48.5186,
  "lon": -89.1552,
  "sizeTier": "md",
  "capacityMMbf": null,
  "capacityLabel": "Medium sawmill",
  "status": "operating",
  "coordAccuracy": "exact",
  "source": "Ontario MNRF Forest Resource Mills 2023-24"
 },
 {
  "province": "ON",
  "name": "1037617 Ontario Limited (Murillo Millworks)",
  "company": "1037617 Ontario Limited (Murillo Millworks)",
  "town": "Thunder Bay",
  "lat": 48.4135,
  "lon": -89.4913,
  "sizeTier": "sm",
  "capacityMMbf": null,
  "capacityLabel": "Small sawmill",
  "status": "operating",
  "coordAccuracy": "exact",
  "source": "Ontario MNRF Forest Resource Mills 2023-24"
 },
 {
  "province": "ON",
  "name": "Resolute FP Canada Inc.",
  "company": "Resolute FP Canada Inc.",
  "town": "Thunder Bay",
  "lat": 48.359,
  "lon": -89.2354,
  "sizeTier": "lg",
  "capacityMMbf": null,
  "capacityLabel": "Large sawmill",
  "status": "operating",
  "coordAccuracy": "exact",
  "source": "Ontario MNRF Forest Resource Mills 2023-24"
 },
 {
  "province": "ON",
  "name": "GreenFirst Forest Products (QC) Inc.",
  "company": "GreenFirst Forest Products (QC) Inc.",
  "town": "Chapleau",
  "lat": 47.845,
  "lon": -83.427,
  "sizeTier": "lg",
  "capacityMMbf": null,
  "capacityLabel": "Large sawmill",
  "status": "operating",
  "coordAccuracy": "exact",
  "source": "Ontario MNRF Forest Resource Mills 2023-24"
 },
 {
  "province": "ON",
  "name": "GreenFirst Forest Products (QC) Inc.",
  "company": "GreenFirst Forest Products (QC) Inc.",
  "town": "Cochrane",
  "lat": 49.06,
  "lon": -81.001,
  "sizeTier": "lg",
  "capacityMMbf": null,
  "capacityLabel": "Large sawmill",
  "status": "operating",
  "coordAccuracy": "exact",
  "source": "Ontario MNRF Forest Resource Mills 2023-24"
 },
 {
  "province": "ON",
  "name": "EACOM Timber Corporation",
  "company": "EACOM Timber Corporation",
  "town": "Gogama",
  "lat": 47.4741,
  "lon": -81.6102,
  "sizeTier": "lg",
  "capacityMMbf": null,
  "capacityLabel": "Large sawmill",
  "status": "operating",
  "coordAccuracy": "exact",
  "source": "Ontario MNRF Forest Resource Mills 2023-24"
 },
 {
  "province": "ON",
  "name": "Hornepayne Lumber Limited Partnership",
  "company": "Hornepayne Lumber Limited Partnership",
  "town": "Hornepayne",
  "lat": 49.207,
  "lon": -84.67,
  "sizeTier": "lg",
  "capacityMMbf": null,
  "capacityLabel": "Large sawmill",
  "status": "operating",
  "coordAccuracy": "exact",
  "source": "Ontario MNRF Forest Resource Mills 2023-24"
 },
 {
  "province": "ON",
  "name": "GreenFirst Forest Products (QC) Inc.",
  "company": "GreenFirst Forest Products (QC) Inc.",
  "town": "Hearst",
  "lat": 49.692,
  "lon": -83.665,
  "sizeTier": "lg",
  "capacityMMbf": null,
  "capacityLabel": "Large sawmill",
  "status": "operating",
  "coordAccuracy": "exact",
  "source": "Ontario MNRF Forest Resource Mills 2023-24"
 },
 {
  "province": "ON",
  "name": "Lecours Lumber Co. Limited",
  "company": "Lecours Lumber Co. Limited",
  "town": "Calstock",
  "lat": 49.789,
  "lon": -84.145,
  "sizeTier": "lg",
  "capacityMMbf": null,
  "capacityLabel": "Large sawmill",
  "status": "operating",
  "coordAccuracy": "exact",
  "source": "Ontario MNRF Forest Resource Mills 2023-24"
 },
 {
  "province": "ON",
  "name": "1574278 Ontario Inc. aka Rickard Cedar",
  "company": "1574278 Ontario Inc. aka Rickard Cedar",
  "town": "Kapuskasing",
  "lat": 49.3867,
  "lon": 82.3611,
  "sizeTier": "md",
  "capacityMMbf": null,
  "capacityLabel": "Medium sawmill",
  "status": "operating",
  "coordAccuracy": "exact",
  "source": "Ontario MNRF Forest Resource Mills 2023-24"
 },
 {
  "province": "ON",
  "name": "GreenFirst Forest Products (QC) Inc.",
  "company": "GreenFirst Forest Products (QC) Inc.",
  "town": "Kapuskasing",
  "lat": 49.4062,
  "lon": -82.4212,
  "sizeTier": "lg",
  "capacityMMbf": null,
  "capacityLabel": "Large sawmill",
  "status": "operating",
  "coordAccuracy": "exact",
  "source": "Ontario MNRF Forest Resource Mills 2023-24"
 },
 {
  "province": "ON",
  "name": "John Wm. Tyynela",
  "company": "John Wm. Tyynela",
  "town": "Matheson",
  "lat": 48.5627,
  "lon": -80.5097,
  "sizeTier": "sm",
  "capacityMMbf": null,
  "capacityLabel": "Small sawmill",
  "status": "operating",
  "coordAccuracy": "exact",
  "source": "Ontario MNRF Forest Resource Mills 2023-24"
 },
 {
  "province": "ON",
  "name": "EACOM Timber Corporation",
  "company": "EACOM Timber Corporation",
  "town": "Elk Lake",
  "lat": 47.7261,
  "lon": -80.3337,
  "sizeTier": "lg",
  "capacityMMbf": null,
  "capacityLabel": "Large sawmill",
  "status": "operating",
  "coordAccuracy": "exact",
  "source": "Ontario MNRF Forest Resource Mills 2023-24"
 },
 {
  "province": "ON",
  "name": "Rosko Forestry Operations Ltd.",
  "company": "Rosko Forestry Operations Ltd.",
  "town": "Kirkland Lake",
  "lat": 48.1318,
  "lon": -80.0631,
  "sizeTier": "lg",
  "capacityMMbf": null,
  "capacityLabel": "Large sawmill",
  "status": "operating",
  "coordAccuracy": "exact",
  "source": "Ontario MNRF Forest Resource Mills 2023-24"
 },
 {
  "province": "ON",
  "name": "EACOM Timber Corporation",
  "company": "EACOM Timber Corporation",
  "town": "Timmins",
  "lat": 48.481,
  "lon": -81.351,
  "sizeTier": "lg",
  "capacityMMbf": null,
  "capacityLabel": "Large sawmill",
  "status": "operating",
  "coordAccuracy": "exact",
  "source": "Ontario MNRF Forest Resource Mills 2023-24"
 },
 {
  "province": "ON",
  "name": "Little John Enterprises Ltd.",
  "company": "Little John Enterprises Ltd.",
  "town": "Timmins",
  "lat": 48.5047,
  "lon": -81.3648,
  "sizeTier": "lg",
  "capacityMMbf": null,
  "capacityLabel": "Large sawmill",
  "status": "operating",
  "coordAccuracy": "exact",
  "source": "Ontario MNRF Forest Resource Mills 2023-24"
 },
 {
  "province": "ON",
  "name": "Midway Lumber Mills Limited",
  "company": "Midway Lumber Mills Limited",
  "town": "Thessalon",
  "lat": 46.285,
  "lon": -83.568,
  "sizeTier": "lg",
  "capacityMMbf": null,
  "capacityLabel": "Large sawmill",
  "status": "operating",
  "coordAccuracy": "exact",
  "source": "Ontario MNRF Forest Resource Mills 2023-24"
 },
 {
  "province": "ON",
  "name": "EACOM Timber Corporation",
  "company": "EACOM Timber Corporation",
  "town": "Nairn Centre",
  "lat": 46.339,
  "lon": -81.6,
  "sizeTier": "lg",
  "capacityMMbf": null,
  "capacityLabel": "Large sawmill",
  "status": "operating",
  "coordAccuracy": "exact",
  "source": "Ontario MNRF Forest Resource Mills 2023-24"
 },
 {
  "province": "ON",
  "name": "Goulard Lumber (1971) Ltd.",
  "company": "Goulard Lumber (1971) Ltd.",
  "town": "Sturgeon Falls",
  "lat": 46.379,
  "lon": -79.903,
  "sizeTier": "lg",
  "capacityMMbf": null,
  "capacityLabel": "Large sawmill",
  "status": "operating",
  "coordAccuracy": "exact",
  "source": "Ontario MNRF Forest Resource Mills 2023-24"
 },
 {
  "province": "ON",
  "name": "2545088 Ontario Ltd. o/a Northern Pallet Products Ltd.",
  "company": "2545088 Ontario Ltd. o/a Northern Pallet Products Ltd.",
  "town": "North Bay",
  "lat": 46.4985,
  "lon": -79.509,
  "sizeTier": "md",
  "capacityMMbf": null,
  "capacityLabel": "Medium sawmill",
  "status": "operating",
  "coordAccuracy": "exact",
  "source": "Ontario MNRF Forest Resource Mills 2023-24"
 },
 {
  "province": "ON",
  "name": "Sturgeon Falls Brush and Contracting Limited",
  "company": "Sturgeon Falls Brush and Contracting Limited",
  "town": "Sturgeon Falls",
  "lat": 46.3867,
  "lon": -79.8542,
  "sizeTier": "sm",
  "capacityMMbf": null,
  "capacityLabel": "Small sawmill",
  "status": "operating",
  "coordAccuracy": "exact",
  "source": "Ontario MNRF Forest Resource Mills 2023-24"
 },
 {
  "province": "ON",
  "name": "Fredric Russel MacKewn o/a South Wabi Sawmill",
  "company": "Fredric Russel MacKewn o/a South Wabi Sawmill",
  "town": "Haileybury",
  "lat": 47.4559,
  "lon": -79.7368,
  "sizeTier": "sm",
  "capacityMMbf": null,
  "capacityLabel": "Small sawmill",
  "status": "operating",
  "coordAccuracy": "exact",
  "source": "Ontario MNRF Forest Resource Mills 2023-24"
 },
 {
  "province": "ON",
  "name": "Boniferro Mill Works Inc.",
  "company": "Boniferro Mill Works Inc.",
  "town": "Sault Ste. Marie",
  "lat": 46.5522,
  "lon": -84.353,
  "sizeTier": "lg",
  "capacityMMbf": null,
  "capacityLabel": "Large sawmill",
  "status": "operating",
  "coordAccuracy": "exact",
  "source": "Ontario MNRF Forest Resource Mills 2023-24"
 },
 {
  "province": "ON",
  "name": "Portelance Lumber (Capreol) Ltd.",
  "company": "Portelance Lumber (Capreol) Ltd.",
  "town": "Capreol",
  "lat": 46.6657,
  "lon": -80.9236,
  "sizeTier": "md",
  "capacityMMbf": null,
  "capacityLabel": "Medium sawmill",
  "status": "operating",
  "coordAccuracy": "exact",
  "source": "Ontario MNRF Forest Resource Mills 2023-24"
 },
 {
  "province": "ON",
  "name": "Gervais Forest Products Ltd.",
  "company": "Gervais Forest Products Ltd.",
  "town": "Falconbridge",
  "lat": 46.5868,
  "lon": -80.798,
  "sizeTier": "md",
  "capacityMMbf": null,
  "capacityLabel": "Medium sawmill",
  "status": "operating",
  "coordAccuracy": "exact",
  "source": "Ontario MNRF Forest Resource Mills 2023-24"
 },
 {
  "province": "ON",
  "name": "H. & R. Chartrand Lumber Limited",
  "company": "H. & R. Chartrand Lumber Limited",
  "town": "Noelville",
  "lat": 46.134,
  "lon": -80.42,
  "sizeTier": "md",
  "capacityMMbf": null,
  "capacityLabel": "Medium sawmill",
  "status": "operating",
  "coordAccuracy": "exact",
  "source": "Ontario MNRF Forest Resource Mills 2023-24"
 },
 {
  "province": "ON",
  "name": "Lahaie Lumber Ltd.",
  "company": "Lahaie Lumber Ltd.",
  "town": "Alban",
  "lat": 46.106,
  "lon": -80.641,
  "sizeTier": "md",
  "capacityMMbf": null,
  "capacityLabel": "Medium sawmill",
  "status": "operating",
  "coordAccuracy": "exact",
  "source": "Ontario MNRF Forest Resource Mills 2023-24"
 },
 {
  "province": "ON",
  "name": "White River Forest Products Limited Partnership",
  "company": "White River Forest Products Limited Partnership",
  "town": "White River",
  "lat": 48.592,
  "lon": -85.303,
  "sizeTier": "lg",
  "capacityMMbf": null,
  "capacityLabel": "Large sawmill",
  "status": "operating",
  "coordAccuracy": "exact",
  "source": "Ontario MNRF Forest Resource Mills 2023-24"
 },
 {
  "province": "ON",
  "name": "Freymond Lumber Ltd.",
  "company": "Freymond Lumber Ltd.",
  "town": "Bancroft",
  "lat": 45.0429,
  "lon": -77.8349,
  "sizeTier": "md",
  "capacityMMbf": null,
  "capacityLabel": "Medium sawmill",
  "status": "operating",
  "coordAccuracy": "exact",
  "source": "Ontario MNRF Forest Resource Mills 2023-24"
 },
 {
  "province": "ON",
  "name": "Northwood Lumber Inc.",
  "company": "Northwood Lumber Inc.",
  "town": "Bancroft",
  "lat": 45.1133,
  "lon": -77.6293,
  "sizeTier": "md",
  "capacityMMbf": null,
  "capacityLabel": "Medium sawmill",
  "status": "operating",
  "coordAccuracy": "exact",
  "source": "Ontario MNRF Forest Resource Mills 2023-24"
 },
 {
  "province": "ON",
  "name": "Huntsville Forest Products Inc.",
  "company": "Huntsville Forest Products Inc.",
  "town": "Huntsville",
  "lat": 45.3694,
  "lon": -79.2201,
  "sizeTier": "lg",
  "capacityMMbf": null,
  "capacityLabel": "Large sawmill",
  "status": "operating",
  "coordAccuracy": "exact",
  "source": "Ontario MNRF Forest Resource Mills 2023-24"
 },
 {
  "province": "ON",
  "name": "Muskoka Timber Mills Ltd.",
  "company": "Muskoka Timber Mills Ltd.",
  "town": "Bracebridge",
  "lat": 45.0996,
  "lon": -79.3479,
  "sizeTier": "md",
  "capacityMMbf": null,
  "capacityLabel": "Medium sawmill",
  "status": "operating",
  "coordAccuracy": "exact",
  "source": "Ontario MNRF Forest Resource Mills 2023-24"
 },
 {
  "province": "ON",
  "name": "M.W. Hunter Lumber Ltd.",
  "company": "M.W. Hunter Lumber Ltd.",
  "town": "Gooderham",
  "lat": 44.9044,
  "lon": -78.3791,
  "sizeTier": "md",
  "capacityMMbf": null,
  "capacityLabel": "Medium sawmill",
  "status": "operating",
  "coordAccuracy": "exact",
  "source": "Ontario MNRF Forest Resource Mills 2023-24"
 },
 {
  "province": "ON",
  "name": "Haliburton Forest & Wild Life Reserve Ltd.",
  "company": "Haliburton Forest & Wild Life Reserve Ltd.",
  "town": "Haliburton",
  "lat": 45.2168,
  "lon": -78.595,
  "sizeTier": "md",
  "capacityMMbf": null,
  "capacityLabel": "Medium sawmill",
  "status": "operating",
  "coordAccuracy": "exact",
  "source": "Ontario MNRF Forest Resource Mills 2023-24"
 },
 {
  "province": "ON",
  "name": "1409822 Ontario Inc. o/a Almaguin Forest Products",
  "company": "1409822 Ontario Inc. o/a Almaguin Forest Products",
  "town": "South River",
  "lat": 45.8413,
  "lon": -79.3678,
  "sizeTier": "md",
  "capacityMMbf": null,
  "capacityLabel": "Medium sawmill",
  "status": "operating",
  "coordAccuracy": "exact",
  "source": "Ontario MNRF Forest Resource Mills 2023-24"
 },
 {
  "province": "ON",
  "name": "Len Rumleskie & Sons Lumber Co. Ltd.",
  "company": "Len Rumleskie & Sons Lumber Co. Ltd.",
  "town": "Barry's Bay",
  "lat": 45.5195,
  "lon": -77.6815,
  "sizeTier": "sm",
  "capacityMMbf": null,
  "capacityLabel": "Small sawmill",
  "status": "operating",
  "coordAccuracy": "exact",
  "source": "Ontario MNRF Forest Resource Mills 2023-24"
 },
 {
  "province": "ON",
  "name": "Lavern Heideman & Sons Ltd.",
  "company": "Lavern Heideman & Sons Ltd.",
  "town": "Eganville",
  "lat": 45.4894,
  "lon": -77.1977,
  "sizeTier": "lg",
  "capacityMMbf": null,
  "capacityLabel": "Large sawmill",
  "status": "operating",
  "coordAccuracy": "exact",
  "source": "Ontario MNRF Forest Resource Mills 2023-24"
 },
 {
  "province": "ON",
  "name": "734915 Ontario Inc. O/A Popkie Lumber and Sawmill",
  "company": "734915 Ontario Inc. O/A Popkie Lumber and Sawmill",
  "town": "Pembroke",
  "lat": 45.7377,
  "lon": -77.3134,
  "sizeTier": "sm",
  "capacityMMbf": null,
  "capacityLabel": "Small sawmill",
  "status": "operating",
  "coordAccuracy": "exact",
  "source": "Ontario MNRF Forest Resource Mills 2023-24"
 },
 {
  "province": "ON",
  "name": "Ben Hokum & Son Limited",
  "company": "Ben Hokum & Son Limited",
  "town": "Killaloe",
  "lat": 45.588,
  "lon": -77.396,
  "sizeTier": "lg",
  "capacityMMbf": null,
  "capacityLabel": "Large sawmill",
  "status": "operating",
  "coordAccuracy": "exact",
  "source": "Ontario MNRF Forest Resource Mills 2023-24"
 },
 {
  "province": "ON",
  "name": "Gulick Forest Products Ltd.",
  "company": "Gulick Forest Products Ltd.",
  "town": "Palmer Rapids",
  "lat": 45.325,
  "lon": -77.515,
  "sizeTier": "md",
  "capacityMMbf": null,
  "capacityLabel": "Medium sawmill",
  "status": "operating",
  "coordAccuracy": "exact",
  "source": "Ontario MNRF Forest Resource Mills 2023-24"
 },
 {
  "province": "ON",
  "name": "Thomas J. Neuman Ltd.",
  "company": "Thomas J. Neuman Ltd.",
  "town": "Palmer Rapids",
  "lat": 45.33,
  "lon": -77.52,
  "sizeTier": "md",
  "capacityMMbf": null,
  "capacityLabel": "Medium sawmill",
  "status": "operating",
  "coordAccuracy": "exact",
  "source": "Ontario MNRF Forest Resource Mills 2023-24"
 },
 {
  "province": "ON",
  "name": "Carson Lake Lumber Ltd.",
  "company": "Carson Lake Lumber Ltd.",
  "town": "Pembroke",
  "lat": 45.846,
  "lon": -77.255,
  "sizeTier": "md",
  "capacityMMbf": null,
  "capacityLabel": "Medium sawmill",
  "status": "operating",
  "coordAccuracy": "exact",
  "source": "Ontario MNRF Forest Resource Mills 2023-24"
 },
 {
  "province": "ON",
  "name": "Dament & Charles Lumber Manufacturing Limited",
  "company": "Dament & Charles Lumber Manufacturing Limited",
  "town": "Pembroke",
  "lat": 45.8314,
  "lon": -77.2485,
  "sizeTier": "md",
  "capacityMMbf": null,
  "capacityLabel": "Medium sawmill",
  "status": "operating",
  "coordAccuracy": "exact",
  "source": "Ontario MNRF Forest Resource Mills 2023-24"
 },
 {
  "province": "ON",
  "name": "McRae Mills Limited",
  "company": "McRae Mills Limited",
  "town": "Whitney",
  "lat": 45.48,
  "lon": -78.2438,
  "sizeTier": "lg",
  "capacityMMbf": null,
  "capacityLabel": "Large sawmill",
  "status": "operating",
  "coordAccuracy": "exact",
  "source": "Ontario MNRF Forest Resource Mills 2023-24"
 },
 {
  "province": "ON",
  "name": "Murray Brothers Lumber Co. Ltd.",
  "company": "Murray Brothers Lumber Co. Ltd.",
  "town": "Madawaska",
  "lat": 45.496,
  "lon": -77.958,
  "sizeTier": "lg",
  "capacityMMbf": null,
  "capacityLabel": "Large sawmill",
  "status": "operating",
  "coordAccuracy": "exact",
  "source": "Ontario MNRF Forest Resource Mills 2023-24"
 },
 {
  "province": "ON",
  "name": "Chisholm's (Roslin) Limited",
  "company": "Chisholm's (Roslin) Limited",
  "town": "Roslin",
  "lat": 44.353,
  "lon": -77.311,
  "sizeTier": "md",
  "capacityMMbf": null,
  "capacityLabel": "Medium sawmill",
  "status": "operating",
  "coordAccuracy": "exact",
  "source": "Ontario MNRF Forest Resource Mills 2023-24"
 },
 {
  "province": "ON",
  "name": "Wilson's Forest Products Ltd.",
  "company": "Wilson's Forest Products Ltd.",
  "town": "Madoc",
  "lat": 44.519,
  "lon": -77.485,
  "sizeTier": "md",
  "capacityMMbf": null,
  "capacityLabel": "Medium sawmill",
  "status": "operating",
  "coordAccuracy": "exact",
  "source": "Ontario MNRF Forest Resource Mills 2023-24"
 },
 {
  "province": "ON",
  "name": "Breen's Lumber Inc.",
  "company": "Breen's Lumber Inc.",
  "town": "Coldwater",
  "lat": 44.5898,
  "lon": -79.6814,
  "sizeTier": "md",
  "capacityMMbf": null,
  "capacityLabel": "Medium sawmill",
  "status": "operating",
  "coordAccuracy": "exact",
  "source": "Ontario MNRF Forest Resource Mills 2023-24"
 },
 {
  "province": "ON",
  "name": "609319 Ontario Inc. o/a Robert Ritchie Forest Products",
  "company": "609319 Ontario Inc. o/a Robert Ritchie Forest Products",
  "town": "Elmvale",
  "lat": 44.5873,
  "lon": -79.8261,
  "sizeTier": "md",
  "capacityMMbf": null,
  "capacityLabel": "Medium sawmill",
  "status": "operating",
  "coordAccuracy": "exact",
  "source": "Ontario MNRF Forest Resource Mills 2023-24"
 },
 {
  "province": "ON",
  "name": "1382744 Ontario Ltd. (Murphy Lumber)",
  "company": "1382744 Ontario Ltd. (Murphy Lumber)",
  "town": "Eldorado",
  "lat": 44.579,
  "lon": -77.5156,
  "sizeTier": "md",
  "capacityMMbf": null,
  "capacityLabel": "Medium sawmill",
  "status": "operating",
  "coordAccuracy": "exact",
  "source": "Ontario MNRF Forest Resource Mills 2023-24"
 },
 {
  "province": "ON",
  "name": "Edgewood Lumber (2004) Ltd.",
  "company": "Edgewood Lumber (2004) Ltd.",
  "town": "Hawkesville",
  "lat": 43.5643,
  "lon": -80.6429,
  "sizeTier": "md",
  "capacityMMbf": null,
  "capacityLabel": "Medium sawmill",
  "status": "operating",
  "coordAccuracy": "exact",
  "source": "Ontario MNRF Forest Resource Mills 2023-24"
 },
 {
  "province": "ON",
  "name": "Kitchener Forest Products Inc.",
  "company": "Kitchener Forest Products Inc.",
  "town": "Petersburg",
  "lat": 43.3736,
  "lon": -80.551,
  "sizeTier": "md",
  "capacityMMbf": null,
  "capacityLabel": "Medium sawmill",
  "status": "operating",
  "coordAccuracy": "exact",
  "source": "Ontario MNRF Forest Resource Mills 2023-24"
 },
 {
  "province": "ON",
  "name": "Moses Burkhart",
  "company": "Moses Burkhart",
  "town": "St. Clements",
  "lat": 43.5388,
  "lon": -80.7155,
  "sizeTier": "sm",
  "capacityMMbf": null,
  "capacityLabel": "Small sawmill",
  "status": "operating",
  "coordAccuracy": "exact",
  "source": "Ontario MNRF Forest Resource Mills 2023-24"
 },
 {
  "province": "ON",
  "name": "Albert Rogers Sawmill Ltd.",
  "company": "Albert Rogers Sawmill Ltd.",
  "town": "Elora",
  "lat": 43.6687,
  "lon": -80.3145,
  "sizeTier": "sm",
  "capacityMMbf": null,
  "capacityLabel": "Small sawmill",
  "status": "operating",
  "coordAccuracy": "exact",
  "source": "Ontario MNRF Forest Resource Mills 2023-24"
 },
 {
  "province": "ON",
  "name": "Hoover Saw Mill & Pallets Inc.",
  "company": "Hoover Saw Mill & Pallets Inc.",
  "town": "Wallenstein",
  "lat": 43.5697,
  "lon": -80.6448,
  "sizeTier": "md",
  "capacityMMbf": null,
  "capacityLabel": "Medium sawmill",
  "status": "operating",
  "coordAccuracy": "exact",
  "source": "Ontario MNRF Forest Resource Mills 2023-24"
 },
 {
  "province": "ON",
  "name": "Bauman Sawmill Inc.",
  "company": "Bauman Sawmill Inc.",
  "town": "Wallenstein",
  "lat": 43.5885,
  "lon": -80.6501,
  "sizeTier": "md",
  "capacityMMbf": null,
  "capacityLabel": "Medium sawmill",
  "status": "operating",
  "coordAccuracy": "exact",
  "source": "Ontario MNRF Forest Resource Mills 2023-24"
 },
 {
  "province": "ON",
  "name": "Neilson Lumber Limited",
  "company": "Neilson Lumber Limited",
  "town": "Hastings",
  "lat": 44.32,
  "lon": -78.068,
  "sizeTier": "md",
  "capacityMMbf": null,
  "capacityLabel": "Medium sawmill",
  "status": "operating",
  "coordAccuracy": "exact",
  "source": "Ontario MNRF Forest Resource Mills 2023-24"
 },
 {
  "province": "ON",
  "name": "Brouwer Wood Inc.",
  "company": "Brouwer Wood Inc.",
  "town": "Keswick",
  "lat": 44.2315,
  "lon": -79.421,
  "sizeTier": "md",
  "capacityMMbf": null,
  "capacityLabel": "Medium sawmill",
  "status": "operating",
  "coordAccuracy": "exact",
  "source": "Ontario MNRF Forest Resource Mills 2023-24"
 },
 {
  "province": "ON",
  "name": "Shelley's Sawmill Inc.",
  "company": "Shelley's Sawmill Inc.",
  "town": "Wallacetown",
  "lat": 42.6378,
  "lon": -81.4695,
  "sizeTier": "md",
  "capacityMMbf": null,
  "capacityLabel": "Medium sawmill",
  "status": "operating",
  "coordAccuracy": "exact",
  "source": "Ontario MNRF Forest Resource Mills 2023-24"
 },
 {
  "province": "ON",
  "name": "Byler's Sawmill",
  "company": "Byler's Sawmill",
  "town": "Mount Elgin",
  "lat": 42.9463,
  "lon": -80.7255,
  "sizeTier": "sm",
  "capacityMMbf": null,
  "capacityLabel": "Small sawmill",
  "status": "operating",
  "coordAccuracy": "exact",
  "source": "Ontario MNRF Forest Resource Mills 2023-24"
 },
 {
  "province": "ON",
  "name": "Shetler Bros. Sawmill",
  "company": "Shetler Bros. Sawmill",
  "town": "Mount Elgin",
  "lat": 42.9512,
  "lon": -80.7378,
  "sizeTier": "sm",
  "capacityMMbf": null,
  "capacityLabel": "Small sawmill",
  "status": "operating",
  "coordAccuracy": "exact",
  "source": "Ontario MNRF Forest Resource Mills 2023-24"
 },
 {
  "province": "ON",
  "name": "Lakeshore Forest Products Ltd.",
  "company": "Lakeshore Forest Products Ltd.",
  "town": "Thedford",
  "lat": 43.1705,
  "lon": -81.8416,
  "sizeTier": "md",
  "capacityMMbf": null,
  "capacityLabel": "Medium sawmill",
  "status": "operating",
  "coordAccuracy": "exact",
  "source": "Ontario MNRF Forest Resource Mills 2023-24"
 },
 {
  "province": "ON",
  "name": "Bester Forest Products Ltd.",
  "company": "Bester Forest Products Ltd.",
  "town": "Walkerton",
  "lat": 44.158,
  "lon": -81.2121,
  "sizeTier": "md",
  "capacityMMbf": null,
  "capacityLabel": "Medium sawmill",
  "status": "operating",
  "coordAccuracy": "exact",
  "source": "Ontario MNRF Forest Resource Mills 2023-24"
 },
 {
  "province": "ON",
  "name": "Folmer & Phillippi Sawmill Ltd.",
  "company": "Folmer & Phillippi Sawmill Ltd.",
  "town": "Chepstow",
  "lat": 44.1556,
  "lon": -81.2678,
  "sizeTier": "md",
  "capacityMMbf": null,
  "capacityLabel": "Medium sawmill",
  "status": "operating",
  "coordAccuracy": "exact",
  "source": "Ontario MNRF Forest Resource Mills 2023-24"
 },
 {
  "province": "ON",
  "name": "Klemmer Lumber Ltd.",
  "company": "Klemmer Lumber Ltd.",
  "town": "Elmwood",
  "lat": 44.2345,
  "lon": -80.9832,
  "sizeTier": "md",
  "capacityMMbf": null,
  "capacityLabel": "Medium sawmill",
  "status": "operating",
  "coordAccuracy": "exact",
  "source": "Ontario MNRF Forest Resource Mills 2023-24"
 },
 {
  "province": "ON",
  "name": "Townsend Lumber Inc.",
  "company": "Townsend Lumber Inc.",
  "town": "Tillsonburg",
  "lat": 42.8451,
  "lon": -80.6737,
  "sizeTier": "md",
  "capacityMMbf": null,
  "capacityLabel": "Medium sawmill",
  "status": "operating",
  "coordAccuracy": "exact",
  "source": "Ontario MNRF Forest Resource Mills 2023-24"
 },
 {
  "province": "ON",
  "name": "Miller Wood Products Ltd.",
  "company": "Miller Wood Products Ltd.",
  "town": "Exeter",
  "lat": 43.3398,
  "lon": -81.4268,
  "sizeTier": "sm",
  "capacityMMbf": null,
  "capacityLabel": "Small sawmill",
  "status": "operating",
  "coordAccuracy": "exact",
  "source": "Ontario MNRF Forest Resource Mills 2023-24"
 },
 {
  "province": "ON",
  "name": "Bernie McGlynn Lumber Ltd.",
  "company": "Bernie McGlynn Lumber Ltd.",
  "town": "Mildmay",
  "lat": 44.0794,
  "lon": -81.1392,
  "sizeTier": "md",
  "capacityMMbf": null,
  "capacityLabel": "Medium sawmill",
  "status": "operating",
  "coordAccuracy": "exact",
  "source": "Ontario MNRF Forest Resource Mills 2023-24"
 },
 {
  "province": "ON",
  "name": "B.E. Grein Lumber Ltd.",
  "company": "B.E. Grein Lumber Ltd.",
  "town": "Ayton",
  "lat": 43.9653,
  "lon": -80.9715,
  "sizeTier": "md",
  "capacityMMbf": null,
  "capacityLabel": "Medium sawmill",
  "status": "operating",
  "coordAccuracy": "exact",
  "source": "Ontario MNRF Forest Resource Mills 2023-24"
 },
 {
  "province": "ON",
  "name": "Crosshill Sawmill Inc.",
  "company": "Crosshill Sawmill Inc.",
  "town": "Millbank",
  "lat": 43.5427,
  "lon": -80.7699,
  "sizeTier": "sm",
  "capacityMMbf": null,
  "capacityLabel": "Small sawmill",
  "status": "operating",
  "coordAccuracy": "exact",
  "source": "Ontario MNRF Forest Resource Mills 2023-24"
 },
 {
  "province": "AB",
  "name": "Blue Ridge Lumber",
  "company": "West Fraser Timber",
  "town": "Whitecourt",
  "lat": 54.14,
  "lon": -115.42,
  "sizeTier": "un",
  "capacityMMbf": null,
  "capacityLabel": null,
  "status": "operating",
  "coordAccuracy": "town",
  "source": "Company disclosures (no open AB mill dataset)"
 },
 {
  "province": "AB",
  "name": "Cochrane (former Spray Lake)",
  "company": "West Fraser Timber",
  "town": "Cochrane",
  "lat": 51.19,
  "lon": -114.47,
  "sizeTier": "lg",
  "capacityMMbf": 155,
  "capacityLabel": "~155 MMbf/yr",
  "status": "operating",
  "coordAccuracy": "town",
  "source": "Company disclosures (no open AB mill dataset)"
 },
 {
  "province": "AB",
  "name": "Edson Forest Products",
  "company": "West Fraser Timber",
  "town": "Edson",
  "lat": 53.58,
  "lon": -116.44,
  "sizeTier": "un",
  "capacityMMbf": null,
  "capacityLabel": null,
  "status": "operating",
  "coordAccuracy": "town",
  "source": "Company disclosures (no open AB mill dataset)"
 },
 {
  "province": "AB",
  "name": "High Prairie",
  "company": "West Fraser Timber",
  "town": "High Prairie",
  "lat": 55.43,
  "lon": -116.49,
  "sizeTier": "un",
  "capacityMMbf": null,
  "capacityLabel": null,
  "status": "operating",
  "coordAccuracy": "town",
  "source": "Company disclosures (no open AB mill dataset)"
 },
 {
  "province": "AB",
  "name": "Hinton Wood Products",
  "company": "West Fraser Timber",
  "town": "Hinton",
  "lat": 53.4,
  "lon": -117.57,
  "sizeTier": "un",
  "capacityMMbf": null,
  "capacityLabel": null,
  "status": "operating",
  "coordAccuracy": "town",
  "source": "Company disclosures (no open AB mill dataset)"
 },
 {
  "province": "AB",
  "name": "Manning",
  "company": "West Fraser Timber",
  "town": "Manning",
  "lat": 56.92,
  "lon": -117.62,
  "sizeTier": "un",
  "capacityMMbf": null,
  "capacityLabel": null,
  "status": "operating",
  "coordAccuracy": "town",
  "source": "Company disclosures (no open AB mill dataset)"
 },
 {
  "province": "AB",
  "name": "Sundre Forest Products",
  "company": "West Fraser Timber",
  "town": "Sundre",
  "lat": 51.8,
  "lon": -114.64,
  "sizeTier": "un",
  "capacityMMbf": null,
  "capacityLabel": null,
  "status": "operating",
  "coordAccuracy": "town",
  "source": "Company disclosures (no open AB mill dataset)"
 },
 {
  "province": "AB",
  "name": "Grande Prairie",
  "company": "Canfor",
  "town": "Grande Prairie",
  "lat": 55.17,
  "lon": -118.8,
  "sizeTier": "un",
  "capacityMMbf": null,
  "capacityLabel": null,
  "status": "operating",
  "coordAccuracy": "town",
  "source": "Company disclosures (no open AB mill dataset)"
 },
 {
  "province": "AB",
  "name": "Fox Creek",
  "company": "Canfor",
  "town": "Fox Creek",
  "lat": 54.4,
  "lon": -117.21,
  "sizeTier": "un",
  "capacityMMbf": null,
  "capacityLabel": null,
  "status": "operating",
  "coordAccuracy": "town",
  "source": "Company disclosures (no open AB mill dataset)"
 },
 {
  "province": "AB",
  "name": "Whitecourt",
  "company": "Canfor",
  "town": "Whitecourt",
  "lat": 54.14,
  "lon": -115.69,
  "sizeTier": "un",
  "capacityMMbf": null,
  "capacityLabel": null,
  "status": "operating",
  "coordAccuracy": "town",
  "source": "Company disclosures (no open AB mill dataset)"
 },
 {
  "province": "AB",
  "name": "Footner Forest Products",
  "company": "Tolko",
  "town": "High Level",
  "lat": 58.52,
  "lon": -117.14,
  "sizeTier": "lg",
  "capacityMMbf": 460,
  "capacityLabel": "~460 MMbf/yr",
  "status": "operating",
  "coordAccuracy": "town",
  "source": "Company disclosures (no open AB mill dataset)"
 },
 {
  "province": "AB",
  "name": "Grande Prairie",
  "company": "Weyerhaeuser",
  "town": "Grande Prairie",
  "lat": 55.17,
  "lon": -118.79,
  "sizeTier": "un",
  "capacityMMbf": null,
  "capacityLabel": null,
  "status": "operating",
  "coordAccuracy": "town",
  "source": "Company disclosures (no open AB mill dataset)"
 },
 {
  "province": "AB",
  "name": "Drayton Valley",
  "company": "Weyerhaeuser",
  "town": "Drayton Valley",
  "lat": 53.22,
  "lon": -114.98,
  "sizeTier": "un",
  "capacityMMbf": null,
  "capacityLabel": null,
  "status": "operating",
  "coordAccuracy": "town",
  "source": "Company disclosures (no open AB mill dataset)"
 },
 {
  "province": "NB",
  "name": "J.D. Irving - Sussex",
  "company": "J.D. Irving",
  "town": "Sussex",
  "lat": 45.722,
  "lon": -65.506,
  "sizeTier": "un",
  "capacityMMbf": null,
  "capacityLabel": null,
  "status": "operating",
  "coordAccuracy": "town",
  "source": "JDI Sawmills Division"
 },
 {
  "province": "NB",
  "name": "J.D. Irving - Chipman",
  "company": "J.D. Irving",
  "town": "Chipman",
  "lat": 46.178,
  "lon": -65.882,
  "sizeTier": "un",
  "capacityMMbf": null,
  "capacityLabel": null,
  "status": "operating",
  "coordAccuracy": "town",
  "source": "JDI (Grand Lake Timber)"
 },
 {
  "province": "NB",
  "name": "J.D. Irving - Doaktown",
  "company": "J.D. Irving",
  "town": "Doaktown",
  "lat": 46.553,
  "lon": -66.128,
  "sizeTier": "un",
  "capacityMMbf": null,
  "capacityLabel": null,
  "status": "operating",
  "coordAccuracy": "town",
  "source": "JDI newsroom"
 },
 {
  "province": "NB",
  "name": "J.D. Irving - Saint-Leonard",
  "company": "J.D. Irving",
  "town": "Saint-Leonard",
  "lat": 47.163,
  "lon": -67.924,
  "sizeTier": "un",
  "capacityMMbf": null,
  "capacityLabel": null,
  "status": "operating",
  "coordAccuracy": "town",
  "source": "forestrysyndicate.com"
 },
 {
  "province": "NB",
  "name": "Twin Rivers - Plaster Rock",
  "company": "Twin Rivers Paper",
  "town": "Plaster Rock",
  "lat": 46.907,
  "lon": -67.397,
  "sizeTier": "un",
  "capacityMMbf": null,
  "capacityLabel": null,
  "status": "operating",
  "coordAccuracy": "town",
  "source": "twinriverspaper.com"
 },
 {
  "province": "NS",
  "name": "Freeman Lumber",
  "company": "Harry Freeman & Son",
  "town": "Greenfield",
  "lat": 44.34,
  "lon": -64.93,
  "sizeTier": "lg",
  "capacityMMbf": 120,
  "capacityLabel": "~120 MMbf/yr",
  "status": "operating",
  "coordAccuracy": "town",
  "source": "freemanlumber.com"
 },
 {
  "province": "NS",
  "name": "Ledwidge Lumber",
  "company": "Ledwidge Lumber",
  "town": "Enfield",
  "lat": 44.93,
  "lon": -63.52,
  "sizeTier": "un",
  "capacityMMbf": null,
  "capacityLabel": null,
  "status": "operating",
  "coordAccuracy": "town",
  "source": "ledwidgelumber.com"
 },
 {
  "province": "NS",
  "name": "Elmsdale Lumber",
  "company": "Elmsdale Lumber",
  "town": "Elmsdale",
  "lat": 44.98,
  "lon": -63.49,
  "sizeTier": "un",
  "capacityMMbf": null,
  "capacityLabel": null,
  "status": "operating",
  "coordAccuracy": "town",
  "source": "elmsdalelumber.ca"
 },
 {
  "province": "NS",
  "name": "Taylor Lumber",
  "company": "F.W. Taylor Lumber",
  "town": "Middle Musquodoboit",
  "lat": 45.05,
  "lon": -63.13,
  "sizeTier": "sm",
  "capacityMMbf": 15,
  "capacityLabel": "~15 MMbf/yr",
  "status": "operating",
  "coordAccuracy": "town",
  "source": "taylorlumber.ca"
 },
 {
  "province": "MB",
  "name": "Spruce Products Limited",
  "company": "Spruce Products Limited",
  "town": "Swan River",
  "lat": 52.106,
  "lon": -101.268,
  "sizeTier": "un",
  "capacityMMbf": null,
  "capacityLabel": null,
  "status": "operating",
  "coordAccuracy": "town",
  "source": "spl.mb.ca"
 },
 {
  "province": "SK",
  "name": "NorSask Forest Products",
  "company": "NorSask / Meadow Lake Tribal Council",
  "town": "Meadow Lake",
  "lat": 54.128,
  "lon": -108.435,
  "sizeTier": "lg",
  "capacityMMbf": 140,
  "capacityLabel": "~140 MMbf/yr",
  "status": "operating",
  "coordAccuracy": "town",
  "source": "norsask.ca"
 },
 {
  "province": "SK",
  "name": "Carrier Forest Products - Big River",
  "company": "Carrier Forest Products",
  "town": "Big River",
  "lat": 53.837,
  "lon": -107.008,
  "sizeTier": "lg",
  "capacityMMbf": 250,
  "capacityLabel": "~250 MMbf/yr",
  "status": "operating",
  "coordAccuracy": "town",
  "source": "carrierlumber.ca"
 },
 {
  "province": "SK",
  "name": "Edgewood Forest Products",
  "company": "Dunkley Lumber",
  "town": "Carrot River",
  "lat": 53.285,
  "lon": -103.595,
  "sizeTier": "lg",
  "capacityMMbf": 140,
  "capacityLabel": "~140 MMbf/yr",
  "status": "operating",
  "coordAccuracy": "town",
  "source": "dunkleylumber.com"
 },
 {
  "province": "SK",
  "name": "Christiansen Lumber",
  "company": "Christiansen Lumber",
  "town": "Big River",
  "lat": 53.85,
  "lon": -107.02,
  "sizeTier": "un",
  "capacityMMbf": null,
  "capacityLabel": null,
  "status": "operating",
  "coordAccuracy": "town",
  "source": "christiansenlumber.ca"
 },
 {
  "province": "NL",
  "name": "Sexton Lumber",
  "company": "Sexton Lumber",
  "town": "Bloomfield",
  "lat": 48.42,
  "lon": -53.98,
  "sizeTier": "un",
  "capacityMMbf": null,
  "capacityLabel": null,
  "status": "operating",
  "coordAccuracy": "town",
  "source": "NL Wood Products Directory 2016"
 },
 {
  "province": "NL",
  "name": "Burton's Cove Logging and Lumber",
  "company": "Burton's Cove Logging & Lumber",
  "town": "Hampden",
  "lat": 49.556,
  "lon": -56.855,
  "sizeTier": "un",
  "capacityMMbf": null,
  "capacityLabel": null,
  "status": "operating",
  "coordAccuracy": "town",
  "source": "NL Wood Products Directory 2016"
 },
 {
  "province": "NL",
  "name": "Cottle's Island Lumber",
  "company": "Cottle's Island Lumber",
  "town": "Summerford",
  "lat": 49.48,
  "lon": -54.78,
  "sizeTier": "un",
  "capacityMMbf": null,
  "capacityLabel": null,
  "status": "operating",
  "coordAccuracy": "town",
  "source": "NL Wood Products Directory 2016"
 }
]